nombre;descripcion;estrellas;ciudad;pais;lat;lon;chef;tipo_cocina_1
ABaC;Discover the unique culinary vision of the bold, media-friendly;3;Barcelona;Spain;41.4103822;2.1367664;Jordi Cruz Mas;Creative
Abantal;Andalucian cuisine with a cutting edge. Individual personality shines through;1;Seville;Spain;37.3878998;-5.9836581;Julio Fernández Quintero;Creative
Akela?e;A renowned restaurant boasting an impressive design and stunning sea;3;Donostia / San Sebastián;Spain;43.3027805;-2.0731493;Pedro Subijana Reza;Creative
Alevante;A meticulous decor, maritime - inspired designer detail and professionalism are;1;Novo Sancti Petri;Spain;36.346905;-6.1641536;Hector Sanchez Ferrero;Creative
Amelia by Paulo Airaudo;A personal restaurant with a difference located along the Playa;2;Donostia / San Sebastián;Spain;43.3168594;-1.9859469;Paulo Airaudo;Creative
Andreu Genestra;Discover the authentic flavours of the island in this restaurant;1;Capdepera;Spain;39.7134139;3.4286962;Andreu Genestra Garcia;Creative
Aponiente;Immerse yourself in the fantasy culinary world of Ángel León;3;El Puerto de Santa María;Spain;36.6033273;-6.2164435;Ángel León González;Creative
Arzak;This famous restaurant occupies a large house over a century;3;Donostia / San Sebastián;Spain;43.3214016;-1.9490932;Juan Mari Arzak Arratibel;Creative
Atrio;A temple of gastronomy with a strong focus on detail;2;Cáceres;Spain;39.4730183;-6.3713456;Toño Pérez;Creative
Audrey's;This bright, elegant and modern hotel within the AR Diamante;1;Calp;Spain;38.6501744;0.072623;Rafael Soler Ataner;Creative
Azurmendi;This restaurant is located in the heart of the countryside;3;Larrabetzu;Spain;43.26065;-2.81454;Eneko Atxa Azurmendi;Creative
Bardal;Taking its name from a thorny bush, Bardal boasts a;2;Ronda;Spain;36.7417236;-5.1664877;Benito Gómez Becerra;Creative
Bo.TiC;Behind the attractive garden, which provides access to the restaurant;2;Corçà;Spain;41.9878977;3.0160382;Albert Sastregener Surroca;Creative
BonAmb;A rite of passage in the Marina Alta where local;2;Xàbia;Spain;38.7701412;0.148496;Alberto Ferruz Moraleda;Creative
Ca l'Enric;A property of strong contrasts and undeniable personality whose leitmotif;1;La Vall de Bianya;Spain;42.2217505;2.4401289;Jordi Juncà Monteis;Creative
Cabaña Buenavista;Enjoy fine dining in a verdant setting in this delightful;2;El Palmar;Spain;37.92464;-1.163767;Pablo Gonzalez-Conejero Hilla;Creative
Caelis;Elegant, contemporary and with an open kitchen surrounded by a;1;Barcelona;Spain;41.387015;2.1743763;Romain Fornell;Creative
Cal Paradís;Cal Paradís boasts a long family history and continues to;1;Vall d'Alba;Spain;40.1767144;-0.0339761;Miguel Barrera Barrachina;Creative
Callizo;A gastronomic experience in the true sense of the word;1;Ainsa;Spain;42.4176644;0.1381766;Josetxo Souto;Creative
Cancook;Located next to the Estadio de La Romareda, this restaurant;1;Saragossa;Spain;41.6344366;-0.9044313;Ramcés González Méndez;Creative
Casa Marcial;It was in this delightful mansion, hidden amid green meadows;2;La Salgar;Spain;43.4183926;-5.1928818;Nacho Manzano Sánchez;Creative
Casa Pepa;An iconic address in the gastronomy of the Marina Alta;1;Ondara;Spain;38.818996;0.007204;Aina Serra Pedros;Creative
Cebo;A meticulously appointed modern space with a hint of designer;1;Madrid;Spain;40.416502;-3.6987651;Aurelio Morales;Creative
Choco;This local restaurant has been renovated in a style that;1;Córdoba;Spain;37.8850096;-4.7623009;Kisko García González;Creative
Cinc Sentits;Under the baton of chef Jordi Artal, prepare yourself for;2;Barcelona;Spain;41.3784999;2.1521767;Jordi Artal Patnaik;Creative
Cocina Hermanos Torres;The most personal offering to date from the Torres twins;2;Barcelona;Spain;41.3865273;2.1400168;Javier y Sergio Torres Martínez;Creative
Coque;The cuisine proposed by the Sandoval brothers (Mario, Diego and;2;Madrid;Spain;40.430643;-3.690676;Mario Sandoval;Creative
Culler de Pau;Culler de Pau’s standout features are its clever culinary;2;O Grove;Spain;42.4752854;-8.8957637;Javier Olleros Rodríguez;Creative
DSTAgE;This restaurant has an urban and industrial look and a;2;Madrid;Spain;40.4246847;-3.6962925;Diego Guerrero;Creative
Deessa;Luxury, distinction and exclusivity encapsulate the essence of award-winning;1;Madrid;Spain;40.4158561;-3.6928119;Ricard Tobella;Creative
Deliranto;If you’re looking for a unique dining experience it;1;Salou;Spain;41.0767612;1.1325604;Josep Moreno Martin;Creative
Disfrutar;Creativity, high technical skill, fantasy and good taste are the;2;Barcelona;Spain;41.3879756;2.1530369;Oriol Castro;Creative
DiverXO;Forget all your preconceived ideas about food and open up;3;Madrid;Spain;40.4582913;-3.6856715;David Muñoz Rosillo;Creative
El Celler de Can Roca;The three Roca brothers at the helm (Joan runs the;3;Girona;Spain;41.9932026;2.807927;Joan Roca i Fontané;Creative
El Corral del Indianu;A restaurant with one rustic yet contemporary dining room and;1;Arriondas;Spain;43.3902522;-5.1842735;José Antonio Campoviejo;Creative
El Molino de Urdániz;This attractive stone - built property along the main road close;2;Urdaitz;Spain;42.909132;-1.533913;David Yárnoz Martín;Creative
El Poblet;A contemporary-style restaurant which, despite its close ties with;2;Valencia;Spain;39.469784;-0.3745175;Luis Valls Rozalen;Creative
El Portal de Echaurren;A standard-bearer for the cuisine of the Rioja region;2;Ezcaray;Spain;42.3257846;-3.0144146;Francis Paniego Sánchez;Creative
El Rincón de Juan Carlos;Discover the highly surprising cuisine of the Padrón brothers at;1;Adeje;Spain;28.1018325;-16.7535126;;Creative
El Xato;A family restaurant with over 100 years of history, dating;1;la Nucía;Spain;38.6172486;-0.123197;Cristina Figueira Blanco;Creative
Eneko;Located above the Gorka Izagirre bodega, Eneko occupies the space;1;Larrabetzu;Spain;43.26056;-2.8142767;Iker Barrenetxea Arando;Creative
Es Fum;This superb restaurant is considered to be one of the;1;Palmanova;Spain;39.5280896;2.550836;Miguel Navarro Darias;Creative
Es Tragón;A pleasant restaurant occupying a villa-style property that provides;1;Sant Antoni de Portmany;Spain;38.9967311;1.2867365;Álvaro Sanz Clavijo;Creative
Espacio N;In Espacio N, which shares its roof space with a;1;Esquedas;Spain;42.2117392;-0.5474034;Eduardo Salanova;Creative
Etxanobe Atelier;A contemporary restaurant which is both intimate and elegant, where;1;Bilbao;Spain;43.2653543;-2.9314328;Fernando Canales Etxanobe;Creative
Hisop;Because of its size, this restaurant named after an aromatic;1;Barcelona;Spain;41.3944279;2.1480369;Oriol Ivern;Creative
Ikaro;Run by Iñaki and Carolina, a couple who, having met;1;Logrono;Spain;42.4643127;-2.4482165;Iñaki Murua;Creative
José Carlos García;This restaurant is situated in a commercial area opposite Muelle;1;Malaga;Spain;36.71685;-4.4130483;José Carlos García Ortiz;Creative
L'Escaleta;A tranquil family-run restaurant in a superb setting on;2;Cocentaina;Spain;38.7570756;-0.4451945;Kiko Moya Redrado;Creative
La Aquarela;In its somewhat unusual location in an apartment complex, La;1;Arguineguín;Spain;27.7744701;-15.6930938;German Ortega Monserrat;Creative
La Biblioteca;This restaurant in the Hotel Alma Pamplona is run by;1;Pamplona;Spain;42.8194415;-1.6235713;Leandro Gil;Creative
La Boscana;This magnificent restaurant occupies an enclosed farmhouse on the outskirts;1;Bellvís;Spain;41.66112;0.8093196;Joël Castanyé Daniel;Creative
La Cuina de Can Simón;This restaurant is located alongside the town’s impressive medieval;1;Tossa de Mar;Spain;41.7165634;2.9324298;Xavier Lores Gelpi;Creative
La Finca;An attractive country restaurant surrounded by a garden - cum - terrace;1;Elche;Spain;38.2558416;-0.6492128;Susi Díaz Ros;Creative
La Lobita;This well - respected restaurant has raised the use of mushrooms;1;Navaleno;Spain;41.8367514;-3.0064064;Elena Lucas Gonzalo;Creative
La Salita;Occupying a building in the city’s Ruzafa district, La;1;Valencia;Spain;39.4623668;-0.3696366;Begoña Rodrigo de Jorge;Creative
Lasarte;This impeccable contemporary-style restaurant is constantly changing and has;3;Barcelona;Spain;41.3936278;2.1622018;Paolo Casagrande;Creative
Les Cols;The perfect fusion between tradition and modernity, Les Cols occupies;2;Olot;Spain;42.1946503;2.5009;Fina Puigdevall Nogareda;Creative
M.B;Magnificent in every respect, the cuisine at this restaurant is;2;Guía de Isora;Spain;28.171041;-16.799017;Erlantz Gorostiza;Creative
Maca de Castro;A gastronomic restaurant in every sense of the word, occupying;1;Port d'Alcúdia;Spain;39.8343;3.11829;Macarena De Castro Martín;Creative
Maralba;A tranquil and elegant restaurant with a striking glass-fronted;2;Almansa;Spain;38.8696375;-1.0910555;Fran Martínez García;Creative
Marqués de Riscal;Design, design, design! Beneath the magnificent high - ceilinged dining room;1;Elciego;Spain;42.5115422;-2.6176801;Silvia Garcia;Creative
Martín Berasategui;Through his passion, humility and virtuosity, this renowned chef considers;3;Lasarte - Oria;Spain;43.2664755;-2.0152402;Martín Berasategui Olazábal;Creative
Maruja Limón;This restaurant is located opposite Vigo’s sailing club, the;1;Vigo;Spain;42.2404552;-8.7238918;Rafael Centeno Móyer;Creative
Ment by Óscar Calleja;Located within the walls of the Grand Hotel Don Gregorio;1;Salamanca;Spain;40.9604246;-5.664287;Óscar Calleja Orallo;Creative
Messina;Accompanied by his wife, who is in charge of the;1;Marbella;Spain;36.5084597;-4.8806499;Mauricio Giovanini;Creative
Mina;Facing the estuary, this restaurant owes its name to the;1;Bilbao;Spain;43.2550491;-2.9248606;Álvaro Garrido Ramirez;Creative
Mirador de Ulía;A unique restaurant boasting an outstanding location and fabulous views;1;Donostia / San Sebastián;Spain;43.3280079;-1.965735;Ruben Trincado;Creative
Miramar;The Miramar enjoys an excellent location on Llançà’s seafront;2;Llançà;Spain;42.3710822;3.1601265;Paco Pérez;Creative
Moments;Accessed via the hotel lobby, Moments stands out for its;2;Barcelona;Spain;41.3911693;2.1664829;Raül Balam Ruscalleda;Creative
Mugaritz;The Mugaritz occupies an old country house. It has a;2;Errenteria;Spain;43.2722067;-1.9171152;Andoni Luis Aduriz;Creative
Nerua Guggenheim Bilbao;This restaurant is inside the Guggenheim, but with its own;1;Bilbao;Spain;43.268822;-2.9330304;Josean Martínez Alija;Creative
Noor;Although located away from Córdoba’s historic centre, Noor is;2;Córdoba;Spain;37.8897516;-4.7583913;Paco Morales García;Creative
Nub;Through their menus (one of which is vegetarian), the tandem;1;Adeje;Spain;28.0938735;-16.7414175;Andrea Bernardi;Creative
Paco Roncero;This unique restaurant is accessed via an impressive 19C staircase;2;Madrid;Spain;40.4176733;-3.7002477;Paco Roncero;Creative
Pepe Vieira;This restaurant with an avant - garde design is a reference;1;Serpe;Spain;42.40942;-8.75447;Xosé Torres Cannas;Creative
Poemas by Hermanos Padrón;A unique culinary experience overseen by the award-winning Padrón;1;Las Palmas de Gran Canaria;Spain;28.1211968;-15.4272769;Iciar Pérez;Creative
Quatre Molins;Discover the young, fresh and creative cuisine of Rafel Muria;1;Cornudella de Montsant;Spain;41.2645582;0.904766;Rafel Muria;Creative
Quique Dacosta;A delightful Mediterranean villa with an avant - garde design. It;3;Dénia;Spain;38.8537884;0.0852209;Quique Dacosta Vadillo;Creative
Ramón Freixa Madrid;A magical contradiction between traditional and cutting-edge cuisine is;2;Madrid;Spain;40.4284323;-3.6861735;Ramón Freixa Riera;Creative
Raíces-Carlos Maldonado;Spontaneous, talkative, humble, hardworking and creative… chef Carlos Maldonado successfully;1;Talavera de la Reina;Spain;39.9565163;-4.8321518;Carlos Maldonado Pinel;Creative
Raúl Resino;Talent, hard work and creativity are to the fore in;1;Benicarló;Spain;40.4221851;0.4293978;Raúl Resino Olivares;Creative
Refectorio;This restaurant enjoys a superb setting, adding a touch of;1;Sardón de Duero;Spain;41.6156187;-4.4106521;Marc Segarra Sauné;Creative
Ricard Camarena;Art and gastronomy have always formed a perfect tandem to;2;Valencia;Spain;39.48512;-0.3852003;Ricard Camarena Ivards;Creative
Riff;A centrally located and meticulously appointed restaurant with a studied;1;Valencia;Spain;39.4657836;-0.3684603;Bernd Horst Knöller;Creative
Solla;A reference for fine Galician cooking occupying an old country;1;San Salvador de Poio;Spain;42.4334655;-8.6686035;Pepe Solla;Creative
Sollo;"Through his tasting menu, Diego Gallegos, the so - called ""caviar";1;Fuengirola;Spain;36.5809892;-4.5956774;Diego Gallegos de Souza Campos;Creative
Taller;Located at the prestigious Arzuaga bodega, this restaurant with its;1;Quintanilla de Onésimo;Spain;41.6280676;-4.3237821;Víctor Manuel Gutierrez Vallés;Creative
Tatau;If you’re looking for a gastro-bar with a;1;Huesca;Spain;42.1385333;-0.4085046;Tonino Valiente Llorens;Creative
Villa Retiro;This restaurant occupies the former stables of a property that;1;Xerta;Spain;40.9116908;0.4898701;Fran López Gilabert;Creative
Víctor Gutiérrez;The bright and spacious interior is embellished with a number;1;Salamanca;Spain;40.9630387;-5.6703452;Víctor Manuel Gutierrez Vallés;Creative
Xerta;This elegant, contemporary restaurant oozes personality thanks to its striking;1;Barcelona;Spain;41.3944177;2.1564642;;Creative
Yayo Daporta;This restaurant occupies a large centrally located house with a;1;Cambados;Spain;42.5128612;-8.8148041;Yayo Daporta;Creative
Zaranda;The Zaranda restaurant has reopened its doors inside the Es;1;Palma de Mallorca;Spain;39.5655872;2.655429;Fernando Pérez Arellano;Creative
Árbore da Veira;A restaurant with a well - deserved reputation which, with its;1;A Coruña;Spain;43.377457;-8.433224;Luis Veira;Creative
Angle;Located inside the Hotel Cram, Angle has a contemporary look;2;Barcelona;Spain;41.3882671;2.1597015;;Modern Cuisine
Cenador de Amós;A palatial 18C property featuring interesting contrasts between the traditional;3;Villaverde de Pontones;Spain;43.4124884;-3.6988243;Jesús Sánchez Sáinz;Modern Cuisine
Enoteca Paco Pérez;A bright, fresh look with a penchant for varying tones;2;Barcelona;Spain;41.3867832;2.1969283;;Modern Cuisine
Iván Cerdeño;Enjoy haute cuisine served in an impressive country house (“cigarral;2;Toledo;Spain;39.8619154;-4.0462052;Ivan Cerdeño Lopez;Modern Cuisine
Skina;This miniscule restaurant in the old quarter offers an interesting;2;Marbella;Spain;36.5114458;-4.8857086;Mario Cachinero;Modern Cuisine
Voro;Voro is the Latin word for “devour”, which is a;2;Canyamel;Spain;39.6696986;3.4389026;Álvaro Salazar Almansa;Modern Cuisine
A Tafona;An informal restaurant full of contrasts featuring a combination of;1;Santiago de Compostela;Spain;42.880744;-8.5402512;Lucía Freitas Rodríguez;Modern Cuisine
Adrián Quetglas;An intimate, bistro-style restaurant with a welcoming feel in;1;Palma;Spain;39.5734906;2.6432285;Adrián Quetglas García;Modern Cuisine
Alameda;A charming restaurant run by the third generation of the;1;Hondarribia;Spain;43.3612194;-1.7925817;Gorka Txapartegi Lizaso;Modern Cuisine
Alejandro Serrano;A real gastronomic surprise! The chef at this restaurant, who;1;Miranda de Ebro;Spain;42.6863866;-2.9422715;Alejandro Serrano Delgado;Modern Cuisine
Alkimia;Alkimia boasts a striking design, with an avant-garde nod;1;Barcelona;Spain;41.3826841;2.1635878;Jordi Vilà Badia;Modern Cuisine
Ambivium;Located on the famous Pago de Carraovejas wine estate, where;1;Peñafiel;Spain;41.5946148;-4.0875496;Cristobal Muñoz Ortega;Modern Cuisine
Arbidel;A gastronomic jewel located in a quiet alleyway in the;1;Ribadesella;Spain;43.4611136;-5.0598138;Jaime Uz Díaz;Modern Cuisine
Atalaya;Located close to the marina, Atalaya is run by chefs;1;Alcossebre;Spain;40.2490542;0.2851265;Emanuel Carlucci;Modern Cuisine
Atempo;A haute-cuisine restaurant that has returned to Barcelona from;1;Barcelona;Spain;41.3910001;2.1522177;;Modern Cuisine
Auga e Sal;A restaurant in which the cuisine and service are of;1;Santiago de Compostela;Spain;42.8773206;-8.5430529;Áxel Smyth Taracido;Modern Cuisine
Ayalga;Part of the Villa Rosario hotel, which boasts a stunning;1;Ribadesella;Spain;43.4651241;-5.067508;;Modern Cuisine
Aürt;A restaurant with a surprising location in the lobby of;1;Barcelona;Spain;41.4089295;2.217281;Artur Martínez  García;Modern Cuisine
Baeza & Rufete;A restaurant that exudes a passion for cooking, plenty of;1;Alacant;Spain;38.368797;-0.433443;Joaquin Baeza Rufete;Modern Cuisine
Bagá;This unique restaurant, which takes its name from the flower;1;Jaén;Spain;37.7668005;-3.7861942;Pedro Sánchez Jaén;Modern Cuisine
Baluarte;A restaurant occupying an impressive location within an aristocratic building;1;Soria;Spain;41.7625609;-2.4656422;Óscar Javier García Marina;Modern Cuisine
Can Jubany;A unique restaurant occupying a delightful farmhouse. It has several;1;Calldetenes;Spain;41.929287;2.301967;Nandu Jubany;Modern Cuisine
Casa Gerardo;A hugely prestigious restaurant in the principality of Asturias. Beyond;1;Prendes;Spain;43.5554834;-5.7593121;Marcos Morán Suarez;Modern Cuisine
Casona del Judío;This restaurant partially occupies a large 19C colonial-style property;1;Santander;Spain;43.4686232;-3.8292585;Sergio Bastard;Modern Cuisine
Castell Peralada;This restaurant boasts a superb location within the walls of;1;Peralada;Spain;42.3078839;3.0114904;;Modern Cuisine
Chirón;Professionally run by two brothers who continue the restaurant’s;1;Valdemoro;Spain;40.191578;-3.6764858;Iván Muñoz Bargueño;Modern Cuisine
Clos Madrid;The Madrid outpost of Marcos Granda, the owner of the;1;Madrid;Spain;40.4465794;-3.6999179;Alberto Palomino Rojo;Modern Cuisine
Cocinandos;A restaurant full of surprising contrasts where the old façade;1;Leon;Spain;42.6019852;-5.5810161;Juanjo Pérez;Modern Cuisine
Corral de la Morería Gastronómico;A unique and historic restaurant with two distinct dining spaces;1;Madrid;Spain;40.4128471;-3.7140918;David García Pereda;Modern Cuisine
DINS Santi Taura;Experience the mature cooking of chef Santi Taura and his;1;Palma;Spain;39.565643;2.6529955;Santi Taura;Modern Cuisine
Dama Juana;Located in the centre of the city, this restaurant offers;1;Jaén;Spain;37.767224;-3.7854772;Juan Aceituno Sevilla;Modern Cuisine
Eirado;Eirado occupies a typical house in the old quarter, where;1;Pontevedra;Spain;42.4326366;-8.6434132;Iñaki Bretal;Modern Cuisine
El Bohío;Tradition and fine gastronomy combine perfectly in this restaurant famous;1;Illescas;Spain;40.1267656;-3.8462246;Pepe Rodríguez Rey;Modern Cuisine
El Doncel;The magic of modern gastronomy in an 18C mansion in;1;Sigüenza;Spain;41.0692522;-2.643727;Enrique Pérez Martínez;Modern Cuisine
El Invernadero;Chef Rodrigo de la Calle is back in the Spanish;1;Madrid;Spain;40.4446541;-3.6989277;Rodrigo De la Calle;Modern Cuisine
El Molino de Alcuneza;A restaurant with its own unmistakeable personality run by two;1;Sigüenza;Spain;41.1055995;-2.6044708;Samuel Moreno;Modern Cuisine
El Nuevo Molino;Housed in a delightful 18C water mill, this restaurant features;1;Puente Arce;Spain;43.4060901;-3.9481445;José Antonio González Gómez;Modern Cuisine
El Retiro;This restaurant has an attractive entrance hall and a rustic;1;Llanes;Spain;43.4123756;-4.7621095;Ricardo González Sotres;Modern Cuisine
El Serbal;This culinary reference in Santander complements its gastronomic experience with;1;Santander;Spain;43.4776869;-3.7881718;;Modern Cuisine
Emporium;Run by the fourth generation of the family with twins;1;Castelló d'Empúries;Spain;42.2558205;3.0760903;Joan y Marius Jordá i Giró;Modern Cuisine
En la Parra;This restaurant is run by a couple with lots of;1;Salamanca;Spain;40.9606615;-5.6642767;Rocio Parra Haro;Modern Cuisine
Estany Clar;In this attractive 14C farmhouse, choose between the pleasant dining;1;Cercs;Spain;42.11699;1.85401;Josep Xandri Company;Modern Cuisine
Fierro;Fierro is unique in every sense of the word! Its;1;Valencia;Spain;39.4625709;-0.3726653;Carito Lourenço;Modern Cuisine
Fogony;Taking its name from the unusual dry warm wind that;1;Sort;Spain;42.4159399;1.1320159;Zaraida Cotonat Ruiz;Modern Cuisine
Gaytán;A gastronomic space designed to cause a stir! The designer;1;Madrid;Spain;40.4493113;-3.6783632;Javier Aranda Revuelta;Modern Cuisine
Hofmann;The word “gastronomy” reflects the great passion of Mey Hofmann;1;Barcelona;Spain;41.3971709;2.1530609;Silvia Hofmann;Modern Cuisine
Hospedería El Batán;A restaurant with a rustic-regional feel occupying an old;1;Tramacastilla;Spain;40.42797;-1.5602059;María José Meda;Modern Cuisine
Kokotxa;Located in the quietest section of the old town, Kokotxa;1;Donostia / San Sebastián;Spain;43.3236003;-1.9870824;Daniel López Inza;Modern Cuisine
L'Aliança 1919 d'Anglès;A building dating from 1919 that has preserved a slice;1;Anglès;Spain;41.95616;2.6390996;Alex Carrera Alonso;Modern Cuisine
L'Antic Molí;A former flour mill in the middle of the country;1;Ulldecona;Spain;40.6096525;0.3378044;Vicent Guimerà Sales;Modern Cuisine
L'Ó;In the middle of the country but easy to find;1;Sant Fruitós de Bages;Spain;41.7448966;1.9003874;Ivan Margalef Sallés;Modern Cuisine
La Bicicleta;The unique location and retro-chic decor of this pleasant;1;Hoznayo;Spain;43.390118;-3.701983;Eduardo Quintana Gutierrez;Modern Cuisine
La Botica;A family - run restaurant and carvery (asador) occupying a rural;1;Matapozuelos;Spain;41.4143484;-4.7914841;Miguel Ángel de la Cruz García;Modern Cuisine
La Costa;A restaurant with several private rooms, enticing displays and a;1;El Ejido;Spain;36.7709659;-2.8276459;José Álvarez Moreno;Modern Cuisine
La Fonda Xesc;It is unusual to find this type of restaurant in;1;Gombrèn;Spain;42.24774;2.0907118;Francesc Rovira Canudas;Modern Cuisine
La Tasquería;A new-generation, reasonably priced tasca that works miracles through;1;Madrid;Spain;40.42235;-3.6738582;Javier Estévez Ballesteros;Modern Cuisine
Les Magnòlies;This 19C aristocratic house is named after the three mature;1;Arbúcies;Spain;41.8189509;2.5084947;Víctor Torres Muñoz;Modern Cuisine
Les Moles;This family - run business partly occupies an old farm that;1;Ulldecona;Spain;40.602104;0.427955;Jeroni Castell Vidal;Modern Cuisine
Lillas Pastia;An elegant and distinguished restaurant occupying the ground floor of;1;Huesca;Spain;42.13591;-0.4091598;Carmelo Bosque Allue;Modern Cuisine
Lluerna;A restaurant with a modern decor in which the kitchen;1;Santa Coloma de Gramenet;Spain;41.4554734;2.2065622;Víctor Quintillà Imbernon;Modern Cuisine
Los Guayres;This restaurant is situated inside the Hotel Cordial Mogán Playa;1;Puerto de Mogán;Spain;27.8225974;-15.7595468;Alexis Älvarez Fleitas;Modern Cuisine
LÚ Cocina y Alma;Visual impact is very much to the fore in this;1;Jerez de la Frontera;Spain;36.6876345;-6.1357554;Juan Luis Fernández Fernández;Modern Cuisine
Lúa;A restaurant with soul, personality and no little charm. In;1;Madrid;Spain;40.4328535;-3.6957039;Manuel Dominguez Carrete;Modern Cuisine
Malena;Occupying an old dairy, nowadays converted into a research centre;1;Gimenells;Spain;41.6563324;0.3896166;Josep Mª Castaño Piñol;Modern Cuisine
Mantúa;A restaurant with a minimalist feel offering modern cuisine based;1;Jerez de la Frontera;Spain;36.6874746;-6.1359243;Israel Ramos;Modern Cuisine
Marc Fosh;Occupies a 17th century seminar now revamped in an avant;1;Palma;Spain;39.5735982;2.6513729;Marc Fosh;Modern Cuisine
Massana;A serious, well - run restaurant that has been in business;1;Girona;Spain;41.98505;2.81958;Pere Massana Ràfols;Modern Cuisine
Nova;A restaurant with a minimalist feel run by two young;1;Ourense;Spain;42.33977;-7.8623301;Julio Sotomayor;Modern Cuisine
Nublo;Occupying a 16C aristocratic property in which the interior design;1;Haro;Spain;42.5777859;-2.8465048;;Modern Cuisine
Odiseo Gastronómico;Odiseo occupies an impressively unique building dedicated to the pure;1;Murcia;Spain;38.0244458;-1.1432888;Nazario Cano López;Modern Cuisine
Oria;Oria is spacious, modern and elegant, and expertly overseen by;1;Barcelona;Spain;41.3938241;2.1624525;Xabi Goikoetxea;Modern Cuisine
Pablo;Minimalism meets gastronomy at this family - run restaurant showcasing a;1;Leon;Spain;42.6004864;-5.5665652;Juan José Losada Chacón;Modern Cuisine
Retama;A gem of a restaurant situated in the exclusive La;1;Torrenueva;Spain;38.670718;-3.3219559;;Modern Cuisine
Retiro da Costiña;A combination of excellence and plenty of personality. This restaurant;1;Santa Comba;Spain;43.0334653;-8.8038837;Alberto Lareo;Modern Cuisine
Rodero;Creativity, imagination and passion are the buzzwords of this great;1;Pamplona;Spain;42.8160025;-1.6367286;Koldo Rodero;Modern Cuisine
Silabario;Silabario’s setting will come as a pleasant surprise, given;1;Vigo;Spain;42.2365448;-8.7220674;Alberto González Prelcic;Modern Cuisine
Solana;Located next to the Santuario de la Bien Aparecida, the;1;Ampuero;Spain;43.3263141;-3.4531514;Ignacio Solana Pérez;Modern Cuisine
Tresmacarrons;This family - run eatery has an obvious predilection for seasonal;1;El Masnou;Spain;41.4827541;2.3327657;Miquel Aldana Reche;Modern Cuisine
Trigo;A restaurant with a modern appearance just a few steps;1;Valladolid;Spain;41.6526058;-4.7244307;Victor Martin;Modern Cuisine
Trivio;Although located away from the town’s historic centre, this;1;Cuenca;Spain;40.0741657;-2.1376977;Jesús Segura García;Modern Cuisine
Venta Moncalvillo;This restaurant is run by the Echapresto brothers, who are;1;Daroca de Rioja;Spain;42.3715602;-2.5805894;Ignacio Echapresto García;Modern Cuisine
A'Barra;Both the decor, featuring a profusion of high - quality wood;1;Madrid;Spain;40.438683;-3.687633;Sergio Manzano;International
Arrels;If you were thinking of exploring the town’s Roman;1;Sagunt;Spain;39.6786129;-0.2781263;Vicky Sevilla Vazquez;Contemporary
As Garzas;This remote, chalet - style coastal property boasts a dining room;1;Barizo;Spain;43.3213756;-8.8719851;Fernando Agrasar Del Río;Galician
Auga;This restaurant is located at the heart of Gijón’s;1;Gijón;Spain;43.5465083;-5.6665859;Gonzalo Pañeda Díaz;Traditional Cuisine
Beat;The Cook Book hotel’s culinary showcase bases its cuisine;1;Calp;Spain;38.6474226;0.060922;José Manuel Miguel Rodríguez;Mediterranean Cuisine
Boroa;Boroa occupies a charming Basque farmhouse in the middle of;1;Amorebieta - Etxano;Spain;43.2352979;-2.7598523;Vitalie Nofit;Traditional Cuisine
Béns d'Avall;Located in the heart of the Tramontana mountains, this restaurant;1;Sóller;Spain;39.7766578;2.6665427;Benet Vicens Mayol;Regional Cuisine
Can Bosch;Tradition and innovation go hand in hand at this family;1;Cambrils;Spain;41.0670276;1.0590381;Joan Bosch;Traditional Cuisine
Casa Marcelo;This attractive gastro - bar is located just a few metres;1;Santiago de Compostela;Spain;42.880834;-8.5466466;Marcelo Tejedor;Fusion
Coto de Quevedo;Located in a rural setting and part of the hotel;1;Torre de Juan Abad;Spain;38.5799538;-3.0491664;José Antonio Medina Rubio;Traditional Cuisine
Dos Palillos;"A highly original dining option both for its unique ""show";1;Barcelona;Spain;41.3833692;2.1686733;Albert Raurich;Fusion
El Ermitaño;This restaurant, occupying an aristocratic country house with its very;1;Benavente;Spain;42.00712;-5.65799;Óscar Manuel Pérez Alonso;Traditional Cuisine
El Lago;El Lago boasts a stunning location on a relaxing golf;1;Marbella;Spain;36.5062792;-4.7797405;Fernando Villasclaras Arce;Contemporary
Elkano;Professionally run with excellent maintenance. It has a small waiting;1;Getaria;Spain;43.3030043;-2.2049087;Pablo Vicari;Seafood
Els Casals;Els Casals occupies a farmhouse on a working estate that;1;Sagàs;Spain;42.0325482;1.9605884;Oriol Rovira Prat;Catalan
Els Tinars;A restaurant with a long family tradition that dates back;1;Llagostera;Spain;41.8274496;2.9533814;Marc Gascons Díaz;Traditional Cuisine
Etxebarri;Savour fish, seafood and meat cooked to perfection in this;1;Axpe;Spain;43.1143511;-2.5974397;Bittor Arginzoniz;Traditional Cuisine
Europa;The Europa is synonymous with the Idoate siblings who have;1;Pamplona;Spain;42.8161985;-1.6418103;Pilar Idoate;Contemporary
Garena;Garena occupies a delightful “baserri” (traditional country house) in an;1;Dima;Spain;43.1295799;-2.7659276;Julen Baz;Contemporary
Gofio;A superb homage to the cuisine of the Canary Islands;1;Madrid;Spain;40.4138512;-3.6982452;Safe Cruz;Regional Cuisine
Kabuki;A Japanese restaurant with a simple minimalist look that deliberately;1;Madrid;Spain;40.4532499;-3.6971974;Victor Serrano Martín;Japanese
Kaido Sushi Bar;Kaido only has space for ten guests per sitting, all;1;Valencia;Spain;39.470454;-0.3575637;Yoshikazu Yanome;Japanese
Kiro Sushi;"Kiro translates as ""homeward journey"" and as such reflects the";1;Logrono;Spain;42.4624094;-2.4494468;Félix Jiménez Martínez;Japanese
Koy Shunka;"In this restaurant, the name of which translates as ""intense";1;Barcelona;Spain;41.3857791;2.1754154;Hideki Matsuhisa;Japanese
La Gaia;Enjoy creative Mediterranean-focused cuisine that uses the best Iberian;1;Eivissa;Spain;38.9174239;1.4415572;Óscar Molina Ruiz;Fusion
La Prensa;Soul, imagination, sincerity and flavour – plus a real desire to;1;Saragossa;Spain;41.633181;-0.8746479;Marisa Barberán;Contemporary
Lera;If you enjoy wild game, make sure you book a;1;Castroverde de Campos;Spain;41.967639;-5.3137839;Luis Alberto Lera Collantes;Regional Cuisine
Lienzo;Lienzo occupies an elegant building in which the modern decor;1;Valencia;Spain;39.4750292;-0.3697428;María José Martínez Vicente;Mediterranean Cuisine
Magoga;A pleasant, contemporary restaurant run with great passion and enthusiasm;1;Cartagena;Spain;37.605446;-0.98376;María Gómez García;Regional Cuisine
Miguel González;A gastronomic discovery in this small village, accessed via a;1;Pereiro de Aguiar;Spain;42.3494457;-7.8129997;Miguel González Quintela;Contemporary
Mu•na;Located next to the Castillo de los Templarios, with a;1;Ponferrada;Spain;42.5434;-6.59309;Samuel Naveira Soria;Traditional Cuisine
Ola Martín Berasategui;Located inside the Hotel Tayko, where you can discover the;1;Bilbao;Spain;43.257918;-2.9263988;Raul Cabrera Durán;Contemporary
Peix & Brases;Located opposite the port, this restaurant has two different ambiences;1;Dénia;Spain;38.8461335;0.1078156;José Manuel Lopez Iglesias;Mediterranean Cuisine
Quimbaya;At Quimbaya, guests can savour enticing Colombian cuisine via an;1;Madrid;Spain;40.436379;-3.6930752;Edwin Rodríguez;Colombian
Real Balneario;Located right on the beach, this restaurant boasts an attractive;1;Salinas;Spain;43.5776638;-5.966378;Isaac Loya del Río;Traditional Cuisine
Ricardo Sanz Wellington;A legendary restaurant reflecting the gastronomic connection between Japan and;1;Madrid;Spain;40.4219171;-3.6843864;Ricardo Sanz;Japanese
Rincón de Diego;Located close to the Club Náutico, this restaurant has had;1;Cambrils;Spain;41.0667735;1.0631489;Diego Campos Muñoz;Traditional Cuisine
Saddle;The English name is a nod to the legendary Jockey;1;Madrid;Spain;40.4274475;-3.6911998;Adolfo Santos García;Contemporary
Sala;Behind the attractive stone façade is a bar with tables;1;Olost;Spain;41.9859741;2.0959879;Antonio Sala Cunill;Traditional Cuisine
Tula;This simple restaurant just a few metres from Arenal beach;1;Xàbia;Spain;38.7707289;0.1925837;Borja Susilla Bonilla;Mediterranean Cuisine
Versátil;Run by three brothers, one of whom is at the;1;Zarza de Granadilla;Spain;40.2372182;-6.0476206;Alejandro Hernández Talaván;Contemporary
Yugo;A Japanese restaurant that transports guests to the atmosphere of;1;Madrid;Spain;40.410625;-3.694612;Julián Mármol Cruz;Japanese
Zarate;The owner-chef here is passionate about fishing and the;1;Bilbao;Spain;43.262561;-2.9435024;Sergio Ortiz de Zarate;Seafood
Zortziko;One of Bilbao’s leading gastronomic icons which opened its;1;Bilbao;Spain;43.2645266;-2.929366;Daniel García Gómez;Contemporary
eMe Be Garrote;The unique, completely renovated Basque - cum - Scandinavian interior of this;1;Donostia / San Sebastián;Spain;43.3011123;-2.0099694;Javier Izquierdo Beltrán;Contemporary
Via Veneto;A famous property in attractive Belle Époque style with a;1;Barcelona;Spain;41.3924046;2.1389712;David Andrés Morera;Classic Cuisine
Zuberoa;This restaurant is family run and occupies a delightful Basque;1;Oiartzun;Spain;43.2931162;-1.8662787;Hilario Arbelaitz;Classic Cuisine
Smoked Room;An exclusive and slightly “clandestine” eatery that shares a space;2;Madrid;Spain;40.4385556;-3.691358;;Contemporary
Abama Kabuki;Situated in the golf club’s Casa Club, this restaurant;1;Guía de Isora;Spain;28.1706934;-16.7939375;;Japanese
Andra Mari;An attractive farmhouse located in the upper part of town;1;Galdakao;Spain;43.2343555;-2.8325069;;Traditional Cuisine
Cañabota;A unique restaurant with a difference and an atmosphere that;1;Seville;Spain;37.3935972;-5.9936533;;Seafood
Nintai;A full-on culinary experience that introduces Japanese cuisine to;1;Marbella;Spain;36.5097674;-4.8997997;;Japanese
